[
    {
        "country_code": "saarg",
        "country_name": "Argentina",
        "coordinates": [
            -63.616673,
            -38.416096
        ],
        "max_year": 1998,
        "min_year": 1995,
        "independence": 458,
        "hard_work": 599,
        "saving_money": 172,
        "unselfishness": 177,
        "imagination": 278,
        "tolerance_and_respect": 794,
        "determination": 307,
        "obedience": 341
    },
    {
        "country_code": "ocaus",
        "country_name": "Australia",
        "coordinates": [
            133.775131,
            -25.274399
        ],
        "max_year": 1998,
        "min_year": 1995,
        "independence": 1084,
        "hard_work": 735,
        "saving_money": 387,
        "unselfishness": 814,
        "imagination": 540,
        "tolerance_and_respect": 1653,
        "determination": 745,
        "obedience": 598
    },
    {
        "country_code": "asarm",
        "country_name": "Armenia",
        "coordinates": [
            45.038189,
            40.069099
        ],
        "max_year": 1998,
        "min_year": 1995,
        "independence": 640,
        "hard_work": 1671,
        "saving_money": 764,
        "unselfishness": 612,
        "imagination": 314,
        "tolerance_and_respect": 969,
        "determination": 1145,
        "obedience": 359
    },
    {
        "country_code": "aschn",
        "country_name": "China",
        "coordinates": [
            104.195396,
            35.861660
        ],
        "max_year": 1998,
        "min_year": 1995,
        "independence": 752,
        "hard_work": 1090,
        "saving_money": 933,
        "unselfishness": 423,
        "imagination": 332,
        "tolerance_and_respect": 645,
        "determination": 544,
        "obedience": 439
    },
    {
        "country_code": "sacol",
        "country_name": "Colombia",
        "coordinates": [
            -73.637688,
            4.151382
        ],
        "max_year": 1998,
        "min_year": 1995,
        "independence": 1630,
        "hard_work": 1082,
        "saving_money": 1513,
        "unselfishness": 2250,
        "imagination": 1136,
        "tolerance_and_respect": 4117,
        "determination": 590,
        "obedience": 2570
    },
    {
        "country_code": "euest",
        "country_name": "Estonia",
        "coordinates": [
            25.013607,
            58.595272
        ],
        "max_year": 1998,
        "min_year": 1995,
        "independence": 549,
        "hard_work": 889,
        "saving_money": 310,
        "unselfishness": 172,
        "imagination": 88,
        "tolerance_and_respect": 609,
        "determination": 500,
        "obedience": 276
    },
    {
        "country_code": "asind",
        "country_name": "India",
        "coordinates": [
            78.962883,
            20.593683
        ],
        "max_year": 1998,
        "min_year": 1995,
        "independence": 763,
        "hard_work": 1461,
        "saving_money": 854,
        "unselfishness": 460,
        "imagination": 220,
        "tolerance_and_respect": 1052,
        "determination": 588,
        "obedience": 1426
    },
    {
        "country_code": "asjpn",
        "country_name": "Japan",
        "coordinates": [
            138.252930,
            36.204823
        ],
        "max_year": 1998,
        "min_year": 1995,
        "independence": 637,
        "hard_work": 257,
        "saving_money": 459,
        "unselfishness": 398,
        "imagination": 273,
        "tolerance_and_respect": 614,
        "determination": 648,
        "obedience": 66
    },
    {
        "country_code": "askor",
        "country_name": "South Korea",
        "coordinates": [
            127.766922,
            35.907757
        ],
        "max_year": 1998,
        "min_year": 1995,
        "independence": 746,
        "hard_work": 777,
        "saving_money": 828,
        "unselfishness": 133,
        "imagination": 98,
        "tolerance_and_respect": 585,
        "determination": 445,
        "obedience": 180
    },
    {
        "country_code": "namex",
        "country_name": "Mexico",
        "coordinates": [
            -102.552788,
            23.634501
        ],
        "max_year": 1998,
        "min_year": 1995,
        "independence": 601,
        "hard_work": 500,
        "saving_money": 697,
        "unselfishness": 578,
        "imagination": 418,
        "tolerance_and_respect": 865,
        "determination": 600,
        "obedience": 753
    },
    {
        "country_code": "ocnzl",
        "country_name": "New Zealand",
        "coordinates": [
            174.885971,
            -40.900558
        ],
        "max_year": 1998,
        "min_year": 1995,
        "independence": 645,
        "hard_work": 446,
        "saving_money": 302,
        "unselfishness": 393,
        "imagination": 334,
        "tolerance_and_respect": 936,
        "determination": 472,
        "obedience": 263
    },
    {
        "country_code": "afnga",
        "country_name": "Nigeria",
        "coordinates": [
            8.675277,
            9.081999
        ],
        "max_year": 1998,
        "min_year": 1995,
        "independence": 403,
        "hard_work": 1653,
        "saving_money": 195,
        "unselfishness": 293,
        "imagination": 121,
        "tolerance_and_respect": 1267,
        "determination": 777,
        "obedience": 1425
    },
    {
        "country_code": "saper",
        "country_name": "Peru",
        "coordinates": [
            -75.015152,
            -9.189967
        ],
        "max_year": 1998,
        "min_year": 1995,
        "independence": 252,
        "hard_work": 759,
        "saving_money": 231,
        "unselfishness": 189,
        "imagination": 225,
        "tolerance_and_respect": 763,
        "determination": 293,
        "obedience": 607
    },
    {
        "country_code": "eupol",
        "country_name": "Poland",
        "coordinates": [
            19.145136,
            51.919437
        ],
        "max_year": 1998,
        "min_year": 1995,
        "independence": 371,
        "hard_work": 184,
        "saving_money": 655,
        "unselfishness": 160,
        "imagination": 127,
        "tolerance_and_respect": 940,
        "determination": "",
        "obedience": 561
    },
    {
        "country_code": "eurus",
        "country_name": "Russia",
        "coordinates": [
            105.318756,
            61.524010
        ],
        "max_year": 1998,
        "min_year": 1995,
        "independence": 567,
        "hard_work": 1850,
        "saving_money": 1121,
        "unselfishness": 435,
        "imagination": 121,
        "tolerance_and_respect": 1417,
        "determination": 844,
        "obedience": 694
    },
    {
        "country_code": "afzaf",
        "country_name": "South Africa",
        "coordinates": [
            22.937506,
            -30.559483
        ],
        "max_year": 1998,
        "min_year": 1995,
        "independence": 917,
        "hard_work": 1717,
        "saving_money": 843,
        "unselfishness": 657,
        "imagination": 311,
        "tolerance_and_respect": 2055,
        "determination": 873,
        "obedience": 1464
    },
    {
        "country_code": "euesp",
        "country_name": "Spain",
        "coordinates": [
            -3.749220,
            40.463669
        ],
        "max_year": 1998,
        "min_year": 1995,
        "independence": 300,
        "hard_work": 779,
        "saving_money": 231,
        "unselfishness": 173,
        "imagination": 263,
        "tolerance_and_respect": 915,
        "determination": 257,
        "obedience": 530
    },
    {
        "country_code": "euswe",
        "country_name": "Sweden",
        "coordinates": [
            18.643501,
            60.128162
        ],
        "max_year": 1998,
        "min_year": 1995,
        "independence": 612,
        "hard_work": 67,
        "saving_money": 425,
        "unselfishness": 239,
        "imagination": 395,
        "tolerance_and_respect": 912,
        "determination": 319,
        "obedience": 160
    },
    {
        "country_code": "astur",
        "country_name": "Turkey",
        "coordinates": [
            35.243320,
            38.963745
        ],
        "max_year": 1998,
        "min_year": 1995,
        "independence": 312,
        "hard_work": 1322,
        "saving_money": 620,
        "unselfishness": 374,
        "imagination": 422,
        "tolerance_and_respect": 1118,
        "determination": 357,
        "obedience": 681
    },
    {
        "country_code": "euukr",
        "country_name": "Ukraine",
        "coordinates": [
            31.165581,
            48.379433
        ],
        "max_year": 1998,
        "min_year": 1995,
        "independence": 946,
        "hard_work": 2341,
        "saving_money": 1374,
        "unselfishness": 528,
        "imagination": 314,
        "tolerance_and_respect": 1720,
        "determination": 1184,
        "obedience": 1075
    },
    {
        "country_code": "nausa",
        "country_name": "United States",
        "coordinates": [
            -95.712891,
            37.090240
        ],
        "max_year": 1998,
        "min_year": 1995,
        "independence": 698,
        "hard_work": 809,
        "saving_money": 412,
        "unselfishness": 555,
        "imagination": 409,
        "tolerance_and_respect": 1157,
        "determination": 640,
        "obedience": 580
    }
]