[
    {
        "country_code": "saarg",
        "name": "Argentina",
        "coordinates": [
            -63.616673,
            -38.416096
        ],
        "max_year": 2014,
        "min_year": 2010,
        "independence": 454,
        "hard_work": 419,
        "saving_money": 138,
        "unselfishness": 435,
        "imagination": 323,
        "tolerance_and_respect": 599,
        "determination": 259,
        "obedience": 364
    },
    {
        "country_code": "ocaus",
        "name": "Australia",
        "coordinates": [
            133.775131,
            -25.274399
        ],
        "max_year": 2014,
        "min_year": 2010,
        "independence": 960,
        "hard_work": 873,
        "saving_money": 454,
        "unselfishness": 727,
        "imagination": 587,
        "tolerance_and_respect": 1275,
        "determination": 743,
        "obedience": 416
    },
    {
        "country_code": "asarm",
        "name": "Armenia",
        "coordinates": [
            45.038189,
            40.069099
        ],
        "max_year": 2014,
        "min_year": 2010,
        "independence": 308,
        "hard_work": 901,
        "saving_money": 313,
        "unselfishness": 265,
        "imagination": 67,
        "tolerance_and_respect": 620,
        "determination": 361,
        "obedience": 267
    },
    {
        "country_code": "sabra",
        "name": "Brazil",
        "coordinates": [
            -51.925282,
            -14.235004
        ],
        "max_year": 2014,
        "min_year": 2010,
        "independence": 558,
        "hard_work": 953,
        "saving_money": 395,
        "unselfishness": 468,
        "imagination": 362,
        "tolerance_and_respect": 954,
        "determination": 420,
        "obedience": 765
    },
    {
        "country_code": "aschn",
        "name": "China",
        "coordinates": [
            104.195396,
            35.861660
        ],
        "max_year": 2014,
        "min_year": 2010,
        "independence": 1604,
        "hard_work": 1732,
        "saving_money": 1165,
        "unselfishness": 672,
        "imagination": 390,
        "tolerance_and_respect": 1200,
        "determination": 598,
        "obedience": 172
    },
    {
        "country_code": "sacol",
        "name": "Colombia",
        "coordinates": [
            -73.637688,
            4.151382
        ],
        "max_year": 2014,
        "min_year": 2010,
        "independence": 551,
        "hard_work": 205,
        "saving_money": 445,
        "unselfishness": 692,
        "imagination": 314,
        "tolerance_and_respect": 1306,
        "determination": 368,
        "obedience": 1004
    },
    {
        "country_code": "ascyp",
        "name": "Cyprus",
        "coordinates": [
            33.429859,
            35.126411
        ],
        "max_year": 2014,
        "min_year": 2010,
        "independence": 431,
        "hard_work": 408,
        "saving_money": 306,
        "unselfishness": 360,
        "imagination": 234,
        "tolerance_and_respect": 697,
        "determination": 410,
        "obedience": 372
    },
    {
        "country_code": "euest",
        "name": "Estonia",
        "coordinates": [
            25.013607,
            58.595272
        ],
        "max_year": 2014,
        "min_year": 2010,
        "independence": 835,
        "hard_work": 1341,
        "saving_money": 1181,
        "unselfishness": 652,
        "imagination": 565,
        "tolerance_and_respect": 1295,
        "determination": 1064,
        "obedience": 962
    },
    {
        "country_code": "eudeu",
        "name": "Germany",
        "coordinates": [
            10.451526,
            51.165691
        ],
        "max_year": 2014,
        "min_year": 2010,
        "independence": 1503,
        "hard_work": 367,
        "saving_money": 779,
        "unselfishness": 122,
        "imagination": 604,
        "tolerance_and_respect": 1365,
        "determination": 1220,
        "obedience": 257
    },
    {
        "country_code": "afgha",
        "name": "Ghana",
        "coordinates": [
            -1.023194,
            7.946527
        ],
        "max_year": 2014,
        "min_year": 2010,
        "independence": 446,
        "hard_work": 1327,
        "saving_money": 378,
        "unselfishness": 382,
        "imagination": 187,
        "tolerance_and_respect": 1026,
        "determination": 713,
        "obedience": 1145
    },
    {
        "country_code": "asind",
        "name": "India",
        "coordinates": [
            78.962883,
            20.593683
        ],
        "max_year": 2014,
        "min_year": 2010,
        "independence": 3665,
        "hard_work": 3859,
        "saving_money": 3496,
        "unselfishness": 3308,
        "imagination": 2821,
        "tolerance_and_respect": 3640,
        "determination": 3454,
        "obedience": 3666
    },
    {
        "country_code": "asjpn",
        "name": "Japan",
        "coordinates": [
            138.252930,
            36.204823
        ],
        "max_year": 2014,
        "min_year": 2010,
        "independence": 1654,
        "hard_work": 858,
        "saving_money": 1167,
        "unselfishness": 1101,
        "imagination": 773,
        "tolerance_and_respect": 1578,
        "determination": 1656,
        "obedience": 121
    },
    {
        "country_code": "asjor",
        "name": "Jordan",
        "coordinates": [
            36.238415,
            30.585163
        ],
        "max_year": 2014,
        "min_year": 2010,
        "independence": 523,
        "hard_work": 474,
        "saving_money": 335,
        "unselfishness": 438,
        "imagination": 177,
        "tolerance_and_respect": 918,
        "determination": 329,
        "obedience": 674
    },
    {
        "country_code": "askor",
        "name": "South Korea",
        "coordinates": [
            127.766922,
            35.907757
        ],
        "max_year": 2014,
        "min_year": 2010,
        "independence": 694,
        "hard_work": 772,
        "saving_money": 781,
        "unselfishness": 126,
        "imagination": 174,
        "tolerance_and_respect": 490,
        "determination": 654,
        "obedience": 104
    },
    {
        "country_code": "namex",
        "name": "Mexico",
        "coordinates": [
            -102.552788,
            23.634501
        ],
        "max_year": 2014,
        "min_year": 2010,
        "independence": 770,
        "hard_work": 761,
        "saving_money": 691,
        "unselfishness": 869,
        "imagination": 477,
        "tolerance_and_respect": 1558,
        "determination": 539,
        "obedience": 1091
    },
    {
        "country_code": "afmar",
        "name": "Morocco",
        "coordinates": [
            -7.092620,
            31.791702
        ],
        "max_year": 2014,
        "min_year": 2010,
        "independence": 516,
        "hard_work": 805,
        "saving_money": 285,
        "unselfishness": 304,
        "imagination": 287,
        "tolerance_and_respect": 679,
        "determination": 231,
        "obedience": 351
    },
    {
        "country_code": "eunld",
        "name": "Netherlands",
        "coordinates": [
            5.291266,
            52.132633
        ],
        "max_year": 2014,
        "min_year": 2010,
        "independence": 1154,
        "hard_work": 596,
        "saving_money": 903,
        "unselfishness": 436,
        "imagination": 381,
        "tolerance_and_respect": 1636,
        "determination": 705,
        "obedience": 487
    },
    {
        "country_code": "ocnzl",
        "name": "New Zealand",
        "coordinates": [
            174.885971,
            -40.900558
        ],
        "max_year": 2014,
        "min_year": 2010,
        "independence": 450,
        "hard_work": 422,
        "saving_money": 281,
        "unselfishness": 308,
        "imagination": 305,
        "tolerance_and_respect": 699,
        "determination": 408,
        "obedience": 203
    },
    {
        "country_code": "afnga",
        "name": "Nigeria",
        "coordinates": [
            8.675277,
            9.081999
        ],
        "max_year": 2014,
        "min_year": 2010,
        "independence": 684,
        "hard_work": 1372,
        "saving_money": 335,
        "unselfishness": 557,
        "imagination": 265,
        "tolerance_and_respect": 1052,
        "determination": 649,
        "obedience": 1105
    },
    {
        "country_code": "saper",
        "name": "Peru",
        "coordinates": [
            -75.015152,
            -9.189967
        ],
        "max_year": 2014,
        "min_year": 2010,
        "independence": 403,
        "hard_work": 200,
        "saving_money": 287,
        "unselfishness": 467,
        "imagination": 202,
        "tolerance_and_respect": 817,
        "determination": 284,
        "obedience": 633
    },
    {
        "country_code": "eupol",
        "name": "Poland",
        "coordinates": [
            19.145136,
            51.919437
        ],
        "max_year": 2014,
        "min_year": 2010,
        "independence": 419,
        "hard_work": 173,
        "saving_money": 479,
        "unselfishness": 146,
        "imagination": 162,
        "tolerance_and_respect": 798,
        "determination": 187,
        "obedience": 329
    },
    {
        "country_code": "eurus",
        "name": "Russia",
        "coordinates": [
            105.318756,
            61.524010
        ],
        "max_year": 2014,
        "min_year": 2010,
        "independence": 946,
        "hard_work": 2112,
        "saving_money": 1259,
        "unselfishness": 565,
        "imagination": 413,
        "tolerance_and_respect": 1588,
        "determination": 1136,
        "obedience": 869
    },
    {
        "country_code": "afzaf",
        "name": "South Africa",
        "coordinates": [
            22.937506,
            -30.559483
        ],
        "max_year": 2014,
        "min_year": 2010,
        "independence": 2241,
        "hard_work": 2478,
        "saving_money": 1074,
        "unselfishness": 981,
        "imagination": 991,
        "tolerance_and_respect": 1854,
        "determination": 1247,
        "obedience": 1314
    },
    {
        "country_code": "afzwe",
        "name": "Zimbabwe",
        "coordinates": [
            29.154858,
            -19.015438
        ],
        "max_year": 2014,
        "min_year": 2010,
        "independence": 586,
        "hard_work": 1140,
        "saving_money": 376,
        "unselfishness": 443,
        "imagination": 200,
        "tolerance_and_respect": 957,
        "determination": 741,
        "obedience": 1050
    },
    {
        "country_code": "euesp",
        "name": "Spain",
        "coordinates": [
            -3.749220,
            40.463669
        ],
        "max_year": 2014,
        "min_year": 2010,
        "independence": 512,
        "hard_work": 792,
        "saving_money": 352,
        "unselfishness": 417,
        "imagination": 295,
        "tolerance_and_respect": 881,
        "determination": 446,
        "obedience": 373
    },
    {
        "country_code": "euswe",
        "name": "Sweden",
        "coordinates": [
            18.643501,
            60.128162
        ],
        "max_year": 2014,
        "min_year": 2010,
        "independence": 848,
        "hard_work": 167,
        "saving_money": 465,
        "unselfishness": 366,
        "imagination": 564,
        "tolerance_and_respect": 1049,
        "determination": 405,
        "obedience": 147
    },
    {
        "country_code": "astur",
        "name": "Turkey",
        "coordinates": [
            35.243320,
            38.963745
        ],
        "max_year": 2014,
        "min_year": 2010,
        "independence": 561,
        "hard_work": 1156,
        "saving_money": 633,
        "unselfishness": 445,
        "imagination": 453,
        "tolerance_and_respect": 986,
        "determination": 610,
        "obedience": 545
    },
    {
        "country_code": "euukr",
        "name": "Ukraine",
        "coordinates": [
            31.165581,
            48.379433
        ],
        "max_year": 2014,
        "min_year": 2010,
        "independence": 643,
        "hard_work": 1287,
        "saving_money": 677,
        "unselfishness": 298,
        "imagination": 196,
        "tolerance_and_respect": 886,
        "determination": 591,
        "obedience": 635
    },
    {
        "country_code": "afegy",
        "name": "Egypt",
        "coordinates": [
            31.165581,
            48.379433
        ],
        "max_year": 2014,
        "min_year": 2010,
        "independence": 1222,
        "hard_work": 768,
        "saving_money": 343,
        "unselfishness": 445,
        "imagination": 94,
        "tolerance_and_respect": 949,
        "determination": 271,
        "obedience": 641
    },
    {
        "country_code": "nausa",
        "name": "United States",
        "coordinates": [
            -95.712891,
            37.090240
        ],
        "max_year": 2014,
        "min_year": 2010,
        "independence": 1197,
        "hard_work": 1482,
        "saving_money": 705,
        "unselfishness": 729,
        "imagination": 680,
        "tolerance_and_respect": 1603,
        "determination": 797,
        "obedience": 624
    }
]